{
  "type": "FeatureCollection",
  "features": [
    {
      "type": "Feature",
      "properties": {
        "Place": "Srivijaya",
        "Polity": "Srivijaya",
        "People": "Malay",
        "Country": "Indonesia",
        "Faith": ""
      },
      "geometry": {
        "type": "Point",
        "coordinates": [
          104.7344857,
          -3.015009651
        ]
      }
    },
    {
      "type": "Feature",
      "properties": {
        "Place": "Mỹ Sơn",
        "Polity": "Cham States",
        "People": "Malay",
        "Country": "Vietnam",
        "Faith": ""
      },
      "geometry": {
        "type": "Point",
        "coordinates": [
          108.1242544,
          15.7641033
        ]
      }
    },
    {
      "type": "Feature",
      "properties": {
        "Place": "Sri Kestra",
        "Polity": "Pyu States",
        "People": "Pyu",
        "Country": "Myanmar",
        "Faith": ""
      },
      "geometry": {
        "type": "Point",
        "coordinates": [
          95.28952823,
          18.80965784
        ]
      }
    },
    {
      "type": "Feature",
      "properties": {
        "Place": "Beikthano",
        "Polity": "Pyu States",
        "People": "Pyu",
        "Country": "Myanmar",
        "Faith": ""
      },
      "geometry": {
        "type": "Point",
        "coordinates": [
          95.37937329,
          20.00398079
        ]
      }
    },
    {
      "type": "Feature",
      "properties": {
        "Place": "Halin",
        "Polity": "Pyu States",
        "People": "Pyu",
        "Country": "Myanmar",
        "Faith": ""
      },
      "geometry": {
        "type": "Point",
        "coordinates": [
          95.80001927,
          22.48186726
        ]
      }
    },
    {
      "type": "Feature",
      "properties": {
        "Place": "Oc Eo",
        "Polity": "Funan",
        "People": "Mon-Khmer",
        "Country": "Vietnam",
        "Faith": ""
      },
      "geometry": {
        "type": "Point",
        "coordinates": [
          105.1543131,
          10.2459137
        ]
      }
    },
    {
      "type": "Feature",
      "properties": {
        "Place": "Isanapura",
        "Polity": "Chenla",
        "People": "Mon-Khmer",
        "Country": "Cambodia",
        "Faith": ""
      },
      "geometry": {
        "type": "Point",
        "coordinates": [
          105.0433215,
          12.871059
        ]
      }
    },
    {
      "type": "Feature",
      "properties": {
        "Place": "Angkor Borei",
        "Polity": "Chenla",
        "People": "Mon-Khmer",
        "Country": "Cambodia",
        "Faith": ""
      },
      "geometry": {
        "type": "Point",
        "coordinates": [
          104.9768543,
          10.9920135
        ]
      }
    },
    {
      "type": "Feature",
      "properties": {
        "marker-color": "#7e7e7e",
        "marker-size": "medium",
        "marker-symbol": "",
        "Place": "Chang'an",
        "Polity": "Tang China",
        "People": "Chinese",
        "Country": "China",
        "Faith": ""
      },
      "geometry": {
        "type": "Point",
        "coordinates": [
          108.966631,
          34.283573
        ]
      }
    },
    {
      "type": "Feature",
      "properties": {
        "Place": "Shrestapura",
        "Polity": "Chenla",
        "People": "Mon-Khmer",
        "Country": "Cambodia",
        "Faith": ""
      },
      "geometry": {
        "type": "Point",
        "coordinates": [
          105.827241,
          14.8463772
        ]
      }
    },
    {
      "type": "Feature",
      "properties": {
        "Place": "Chaiya",
        "Polity": "",
        "People": "Malay",
        "Country": "Thailand",
        "Faith": ""
      },
      "geometry": {
        "type": "Point",
        "coordinates": [
          99.2693811,
          9.3742743
        ]
      }
    },
    {
      "type": "Feature",
      "properties": {
        "Place": "Takua Pa",
        "Polity": "",
        "People": "Malay",
        "Country": "Thailand",
        "Faith": ""
      },
      "geometry": {
        "type": "Point",
        "coordinates": [
          98.3608737,
          8.8393817
        ]
      }
    },
    {
      "type": "Feature",
      "properties": {
        "Place": "Uraiyur",
        "Polity": "Chola",
        "People": "Tamil",
        "Country": "India",
        "Faith": ""
      },
      "geometry": {
        "type": "Point",
        "coordinates": [
          78.6799037,
          10.8307782
        ]
      }
    },
    {
      "type": "Feature",
      "properties": {
        "Place": "Guangzhou",
        "Polity": "Tang China",
        "People": "Chinese",
        "Country": "China",
        "Faith": ""
      },
      "geometry": {
        "type": "Point",
        "coordinates": [
          113.264385,
          23.12911
        ]
      }
    },
    {
      "type": "Feature",
      "properties": {
        "Place": "Quanzhou",
        "Polity": "Tang China",
        "People": "Chinese",
        "Country": "China",
        "Faith": ""
      },
      "geometry": {
        "type": "Point",
        "coordinates": [
          118.675675,
          24.874132
        ]
      }
    },
    {
      "type": "Feature",
      "properties": {
        "Place": "U Thong",
        "Polity": "Dvaravati",
        "People": "Mon",
        "Country": "Thailand",
        "Faith": ""
      },
      "geometry": {
        "type": "Point",
        "coordinates": [
          99.8794744,
          14.4275539
        ]
      }
    },
    {
      "type": "Feature",
      "properties": {
        "Place": "Nakhon Pathom",
        "Polity": "Dvaravati",
        "People": "Mon",
        "Country": "Thailand",
        "Faith": ""
      },
      "geometry": {
        "type": "Point",
        "coordinates": [
          100.0372929,
          13.8140293
        ]
      }
    },
    {
      "type": "Feature",
      "properties": {
        "Place": "Phong Tuk",
        "Polity": "Dvaravati",
        "People": "Mon",
        "Country": "Thailand",
        "Faith": ""
      },
      "geometry": {
        "type": "Point",
        "coordinates": [
          99.785095,
          13.8940824
        ]
      }
    },
    {
      "type": "Feature",
      "properties": {
        "Place": "Si Thep",
        "Polity": "Dvaravati",
        "People": "Mon",
        "Country": "Thailand",
        "Faith": ""
      },
      "geometry": {
        "type": "Point",
        "coordinates": [
          101.1463179,
          15.4700994
        ]
      }
    },
    {
      "type": "Feature",
      "properties": {
        "Place": "Khu Bua",
        "Polity": "Dvaravati",
        "People": "Mon",
        "Country": "Thailand",
        "Faith": ""
      },
      "geometry": {
        "type": "Point",
        "coordinates": [
          99.8236533,
          13.4779198
        ]
      }
    },
    {
      "type": "Feature",
      "properties": {
        "Place": "Si Mahosot",
        "Polity": "Dvaravati",
        "People": "Mon",
        "Country": "Thailand",
        "Faith": ""
      },
      "geometry": {
        "type": "Point",
        "coordinates": [
          101.4225592,
          13.8887566
        ]
      }
    },
    {
      "type": "Feature",
      "properties": {
        "Place": "Tongking",
        "Polity": "Tang China",
        "People": "Vietnamese",
        "Country": "Vietnam",
        "Faith": ""
      },
      "geometry": {
        "type": "Point",
        "coordinates": [
          105.8510132,
          21.027964
        ]
      }
    },
    {
      "type": "Feature",
      "properties": {
        "Place": "Thánh Địa Cát Tiên",
        "Polity": "",
        "People": "",
        "Country": "Vietnam",
        "Faith": ""
      },
      "geometry": {
        "type": "Point",
        "coordinates": [
          107.397902,
          11.529257
        ]
      }
    },
    {
      "type": "Feature",
      "properties": {
        "Place": "Kalingga",
        "Polity": "Kalingga",
        "People": "Javanese",
        "Country": "Indonesia",
        "Faith": ""
      },
      "geometry": {
        "type": "Point",
        "coordinates": [
          109.9069386,
          -7.2050346
        ]
      }
    },
    {
      "type": "Feature",
      "properties": {
        "Place": "Kanchipuram",
        "Polity": "Pallava",
        "People": "Tamil",
        "Country": "India",
        "Faith": ""
      },
      "geometry": {
        "type": "Point",
        "coordinates": [
          79.6946586,
          12.818456
        ]
      }
    },
    {
      "type": "Feature",
      "properties": {
        "Place": "Mahabalipuram",
        "Polity": "Pallava",
        "People": "Tamil",
        "Country": "India",
        "Faith": ""
      },
      "geometry": {
        "type": "Point",
        "coordinates": [
          80.1944915,
          12.6207821
        ]
      }
    },
    {
      "type": "Feature",
      "properties": {
        "marker-color": "#daf609",
        "marker-size": "medium",
        "marker-symbol": "",
        "Place": "Hangzhou",
        "Polity": "Tang China",
        "People": "Chinese",
        "Country": "China",
        "Faith": ""
      },
      "geometry": {
        "type": "Point",
        "coordinates": [
          120.15507,
          30.274084
        ]
      }
    },
    {
      "type": "Feature",
      "properties": {
        "Place": "Langkasuka",
        "Polity": "",
        "People": "Malay",
        "Country": "Thailand",
        "Faith": ""
      },
      "geometry": {
        "type": "Point",
        "coordinates": [
          101.2951403,
          6.7699758
        ]
      }
    },
    {
      "type": "Feature",
      "properties": {
        "Place": "Nalanda",
        "Polity": "",
        "People": "",
        "Country": "India",
        "Faith": ""
      },
      "geometry": {
        "type": "Point",
        "coordinates": [
          85.4485495,
          25.1353827
        ]
      }
    },
    {
      "type": "Feature",
      "properties": {
        "Place": "Simhapura",
        "Polity": "Cham",
        "People": "Malay",
        "Country": "Vietnam",
        "Faith": ""
      },
      "geometry": {
        "type": "Point",
        "coordinates": [
          108.2319444,
          15.8216667
        ]
      }
    },
    {
      "type": "Feature",
      "properties": {
        "Place": "Hoi An",
        "Polity": "Cham",
        "People": "Malay",
        "Country": "Vietnam",
        "Faith": ""
      },
      "geometry": {
        "type": "Point",
        "coordinates": [
          108.3282151,
          15.878223
        ]
      }
    },
    {
      "type": "Feature",
      "properties": {
        "Place": "Muaro Jambi",
        "Polity": "Srivijaya",
        "People": "Malay",
        "Country": "Indonesia"
      },
      "geometry": {
        "type": "Point",
        "coordinates": [
          103.8216261,
          -1.552136
        ]
      }
    },
    {
      "type": "Feature",
      "geometry": {
        "type": "Point",
        "coordinates": [
          104.7344856909299,
          -3.015009651041825,
          7.232308944651449
        ]
      },
      "properties": {
        "name": "Srivijaya"
      }
    },
    {
      "type": "Feature",
      "geometry": {
        "type": "Point",
        "coordinates": [
          108.1242544,
          15.7641033,
          44.3678706982675
        ]
      },
      "properties": {
        "name": "Mỹ Sơn"
      }
    },
    {
      "type": "Feature",
      "geometry": {
        "type": "Point",
        "coordinates": [
          95.28952823324575,
          18.80965783996435,
          38.94535358513627
        ]
      },
      "properties": {
        "name": "Sri Kestra"
      }
    },
    {
      "type": "Feature",
      "geometry": {
        "type": "Point",
        "coordinates": [
          95.37937328972684,
          20.00398079322964,
          101.9272337830407
        ]
      },
      "properties": {
        "name": "Beikthano"
      }
    },
    {
      "type": "Feature",
      "geometry": {
        "type": "Point",
        "coordinates": [
          95.8000192658033,
          22.48186725687865,
          115.8096489850823
        ]
      },
      "properties": {
        "name": "Halin"
      }
    },
    {
      "type": "Feature",
      "geometry": {
        "type": "Point",
        "coordinates": [
          105.1543131468776,
          10.24591369802456,
          22.32122044062196
        ]
      },
      "properties": {
        "name": "Oc Eo"
      }
    },
    {
      "type": "Feature",
      "geometry": {
        "type": "Point",
        "coordinates": [
          105.0433215,
          12.871059,
          0
        ]
      },
      "properties": {
        "name": "Isanapura"
      }
    },
    {
      "type": "Feature",
      "geometry": {
        "type": "Point",
        "coordinates": [
          104.9768543,
          10.9920135,
          0
        ]
      },
      "properties": {
        "name": "Angkor Borei"
      }
    },
    {
      "type": "Feature",
      "geometry": {
        "type": "Point",
        "coordinates": [
          108.966631,
          34.283573,
          0
        ]
      },
      "properties": {
        "name": "Chang'an"
      }
    },
    {
      "type": "Feature",
      "geometry": {
        "type": "Point",
        "coordinates": [
          105.827241,
          14.8463772,
          0
        ]
      },
      "properties": {
        "name": "Shrestapura"
      }
    },
    {
      "type": "Feature",
      "geometry": {
        "type": "Point",
        "coordinates": [
          99.26938109999999,
          9.3742743,
          0
        ]
      },
      "properties": {
        "name": "Chaiya"
      }
    },
    {
      "type": "Feature",
      "geometry": {
        "type": "Point",
        "coordinates": [
          98.3608737,
          8.839381699999999,
          0
        ]
      },
      "properties": {
        "name": "Takua Pa"
      }
    },
    {
      "type": "Feature",
      "geometry": {
        "type": "Point",
        "coordinates": [
          78.6799037,
          10.8307782,
          0
        ]
      },
      "properties": {
        "name": "Uraiyur"
      }
    },
    {
      "type": "Feature",
      "geometry": {
        "type": "Point",
        "coordinates": [
          113.264385,
          23.12911,
          0
        ]
      },
      "properties": {
        "name": "Guangzhou"
      }
    },
    {
      "type": "Feature",
      "geometry": {
        "type": "Point",
        "coordinates": [
          118.675675,
          24.87413200000001,
          0
        ]
      },
      "properties": {
        "name": "Quanzhou"
      }
    },
    {
      "type": "Feature",
      "geometry": {
        "type": "Point",
        "coordinates": [
          99.87947439999999,
          14.4275539,
          0
        ]
      },
      "properties": {
        "name": "U Thong"
      }
    },
    {
      "type": "Feature",
      "geometry": {
        "type": "Point",
        "coordinates": [
          100.0372929,
          13.8140293,
          0
        ]
      },
      "properties": {
        "name": "Nakhon Pathom"
      }
    },
    {
      "type": "Feature",
      "geometry": {
        "type": "Point",
        "coordinates": [
          99.785095,
          13.8940824,
          0
        ]
      },
      "properties": {
        "name": "Phong Tuk"
      }
    },
    {
      "type": "Feature",
      "geometry": {
        "type": "Point",
        "coordinates": [
          101.1463179,
          15.4700994,
          0
        ]
      },
      "properties": {
        "name": "Si Thep"
      }
    },
    {
      "type": "Feature",
      "geometry": {
        "type": "Point",
        "coordinates": [
          99.82365329999998,
          13.4779198,
          0
        ]
      },
      "properties": {
        "name": "Khu Bua"
      }
    },
    {
      "type": "Feature",
      "geometry": {
        "type": "Point",
        "coordinates": [
          101.4225592,
          13.8887566,
          0
        ]
      },
      "properties": {
        "name": "Si Mahosot"
      }
    },
    {
      "type": "Feature",
      "geometry": {
        "type": "Point",
        "coordinates": [
          105.8510132,
          21.027964,
          0
        ]
      },
      "properties": {
        "name": "Tongking"
      }
    },
    {
      "type": "Feature",
      "geometry": {
        "type": "Point",
        "coordinates": [
          107.397902,
          11.529257,
          0
        ]
      },
      "properties": {
        "name": "Thánh Địa Cát Tiên"
      }
    },
    {
      "type": "Feature",
      "geometry": {
        "type": "Point",
        "coordinates": [
          109.9069386,
          -7.205034599999999,
          0
        ]
      },
      "properties": {
        "name": "Kalingga"
      }
    },
    {
      "type": "Feature",
      "geometry": {
        "type": "Point",
        "coordinates": [
          79.6946586,
          12.818456,
          0
        ]
      },
      "properties": {
        "name": "Kanchipuram"
      }
    },
    {
      "type": "Feature",
      "geometry": {
        "type": "Point",
        "coordinates": [
          80.1944915,
          12.6207821,
          0
        ]
      },
      "properties": {
        "name": "Mahabalipuram"
      }
    },
    {
      "type": "Feature",
      "geometry": {
        "type": "Point",
        "coordinates": [
          120.15507,
          30.274084,
          0
        ]
      },
      "properties": {
        "name": "Hangzhou"
      }
    },
    {
      "type": "Feature",
      "geometry": {
        "type": "Point",
        "coordinates": [
          101.2951403,
          6.769975800000001,
          0
        ]
      },
      "properties": {
        "name": "Langkasuka"
      }
    },
    {
      "type": "Feature",
      "geometry": {
        "type": "Point",
        "coordinates": [
          105.400076,
          11.256939,
          0
        ]
      },
      "properties": {
        "name": "Vyadhapura"
      }
    },
    {
      "type": "Feature",
      "geometry": {
        "type": "Point",
        "coordinates": [
          100.1509569,
          15.4134885,
          0
        ]
      },
      "properties": {
        "name": "Khok Mai Den Ancient City"
      }
    },
    {
      "type": "Feature",
      "geometry": {
        "type": "Point",
        "coordinates": [
          104.6389243,
          16.562793,
          0
        ]
      },
      "properties": {
        "name": "Ban Kut Ngong"
      }
    },
    {
      "type": "Feature",
      "geometry": {
        "type": "Point",
        "coordinates": [
          102.3578368,
          17.7307509,
          0
        ]
      },
      "properties": {
        "name": "Phu Phra Bat Historical Park"
      }
    },
    {
      "type": "Feature",
      "geometry": {
        "type": "Point",
        "coordinates": [
          104.7172809,
          12.7902492,
          0
        ]
      },
      "properties": {
        "name": "Prasat Andet"
      }
    },
    {
      "type": "Feature",
      "geometry": {
        "type": "Point",
        "coordinates": [
          85.4485495,
          25.1353827,
          0
        ]
      },
      "properties": {
        "name": "Nalanda"
      }
    },
    {
      "type": "Feature",
      "geometry": {
        "type": "Point",
        "coordinates": [
          108.2319444,
          15.8216667,
          0
        ]
      },
      "properties": {
        "name": "Simhapura"
      }
    },
    {
      "type": "Feature",
      "geometry": {
        "type": "Point",
        "coordinates": [
          108.3282151,
          15.878223,
          0
        ]
      },
      "properties": {
        "name": "Hoi An"
      }
    },
    {
      "type": "Feature",
      "geometry": {
        "type": "Point",
        "coordinates": [
          108.3282151,
          15.878223,
          0
        ]
      },
      "properties": {
        "name": "Hoi An"
      }
    },
    {
      "type": "Feature",
      "geometry": {
        "type": "Point",
        "coordinates": [
          103.8216261,
          -1.552136,
          0
        ]
      },
      "properties": {
        "name": "Muaro Jambi"
      }
    },
    {
      "type": "Feature",
      "geometry": {
        "type": "Point",
        "coordinates": [
          112.453926,
          34.620202,
          0
        ]
      },
      "properties": {
        "name": "Luoyang"
      }
    },
    {
      "type": "Feature",
      "geometry": {
        "type": "Point",
        "coordinates": [
          119.412939,
          32.394209,
          0
        ]
      },
      "properties": {
        "name": "Yangzhou"
      }
    },
    {
      "type": "Feature",
      "geometry": {
        "type": "Point",
        "coordinates": [
          119.412939,
          32.394209,
          0
        ]
      },
      "properties": {
        "name": "Yangzhou"
      }
    },
    {
      "type": "Feature",
      "geometry": {
        "type": "Point",
        "coordinates": [
          89.189752,
          42.951303,
          0
        ]
      },
      "properties": {
        "name": "Turpan"
      }
    },
    {
      "type": "Feature",
      "geometry": {
        "type": "Point",
        "coordinates": [
          79.6951103,
          27.0296784,
          0
        ]
      },
      "properties": {
        "name": "Kannauj"
      }
    },
    {
      "type": "Feature",
      "geometry": {
        "type": "Point",
        "coordinates": [
          120.006202,
          36.285877,
          0
        ]
      },
      "properties": {
        "name": "Jiaozhou City"
      }
    },
    {
      "type": "Feature",
      "geometry": {
        "type": "Point",
        "coordinates": [
          129.2247477,
          35.8561719,
          0
        ]
      },
      "properties": {
        "name": "Gyeongju-si"
      }
    },
    {
      "type": "Feature",
      "geometry": {
        "type": "Point",
        "coordinates": [
          107.1839024,
          -6.052682,
          0
        ]
      },
      "properties": {
        "name": "Batujaya"
      }
    },
    {
      "type": "Feature",
      "geometry": {
        "type": "Point",
        "coordinates": [
          100.3684595,
          6.118396399999999,
          0
        ]
      },
      "properties": {
        "name": "Kedah"
      }
    },
    {
      "type": "Feature",
      "geometry": {
        "type": "Point",
        "coordinates": [
          115.2778317,
          -8.1269952,
          0
        ]
      },
      "properties": {
        "name": "Sembiran"
      }
    },
    {
      "type": "Feature",
      "geometry": {
        "type": "Point",
        "coordinates": [
          101.3062382,
          6.9328364,
          0
        ]
      },
      "properties": {
        "name": "Laem Pho"
      }
    }
  ]
}