{"type":"FeatureCollection","features":[{"type":"Feature","properties":{"Place":"Srivijaya","Polity":"Srivijaya","People":"Malay","Country":"Indonesia","Faith":""},"geometry":{"type":"Point","coordinates":[104.7344857,-3.015009651]}},{"type":"Feature","properties":{"Place":"Mỹ Sơn","Polity":"Cham States","People":"Malay","Country":"Vietnam","Faith":""},"geometry":{"type":"Point","coordinates":[108.1242544,15.7641033]}},{"type":"Feature","properties":{"Place":"Sri Kestra","Polity":"Pyu States","People":"Pyu","Country":"Myanmar","Faith":""},"geometry":{"type":"Point","coordinates":[95.28952823,18.80965784]}},{"type":"Feature","properties":{"Place":"Beikthano","Polity":"Pyu States","People":"Pyu","Country":"Myanmar","Faith":""},"geometry":{"type":"Point","coordinates":[95.37937329,20.00398079]}},{"type":"Feature","properties":{"Place":"Halin","Polity":"Pyu States","People":"Pyu","Country":"Myanmar","Faith":""},"geometry":{"type":"Point","coordinates":[95.80001927,22.48186726]}},{"type":"Feature","properties":{"Place":"Oc Eo","Polity":"Funan","People":"Mon-Khmer","Country":"Vietnam","Faith":""},"geometry":{"type":"Point","coordinates":[105.1543131,10.2459137]}},{"type":"Feature","properties":{"Place":"Isanapura","Polity":"Chenla","People":"Mon-Khmer","Country":"Cambodia","Faith":""},"geometry":{"type":"Point","coordinates":[105.0433215,12.871059]}},{"type":"Feature","properties":{"Place":"Angkor Borei","Polity":"Chenla","People":"Mon-Khmer","Country":"Cambodia","Faith":""},"geometry":{"type":"Point","coordinates":[104.9768543,10.9920135]}},{"type":"Feature","properties":{"Place":"Chang'an","Polity":"Tang China","People":"Chinese","Country":"China","Faith":""},"geometry":{"type":"Point","coordinates":[108.966631,34.283573]}},{"type":"Feature","properties":{"Place":"Shrestapura","Polity":"Chenla","People":"Mon-Khmer","Country":"Cambodia","Faith":""},"geometry":{"type":"Point","coordinates":[105.827241,14.8463772]}},{"type":"Feature","properties":{"Place":"Chaiya","Polity":"","People":"Malay","Country":"Thailand","Faith":""},"geometry":{"type":"Point","coordinates":[99.2693811,9.3742743]}},{"type":"Feature","properties":{"Place":"Takua Pa","Polity":"","People":"Malay","Country":"Thailand","Faith":""},"geometry":{"type":"Point","coordinates":[98.3608737,8.8393817]}},{"type":"Feature","properties":{"Place":"Uraiyur","Polity":"Chola","People":"Tamil","Country":"India","Faith":""},"geometry":{"type":"Point","coordinates":[78.6799037,10.8307782]}},{"type":"Feature","properties":{"Place":"Guangzhou","Polity":"Tang China","People":"Chinese","Country":"China","Faith":""},"geometry":{"type":"Point","coordinates":[113.264385,23.12911]}},{"type":"Feature","properties":{"Place":"Quanzhou","Polity":"Tang China","People":"Chinese","Country":"China","Faith":""},"geometry":{"type":"Point","coordinates":[118.675675,24.874132]}},{"type":"Feature","properties":{"Place":"U Thong","Polity":"Dvaravati","People":"Mon","Country":"Thailand","Faith":""},"geometry":{"type":"Point","coordinates":[99.8794744,14.4275539]}},{"type":"Feature","properties":{"Place":"Nakhon Pathom","Polity":"Dvaravati","People":"Mon","Country":"Thailand","Faith":""},"geometry":{"type":"Point","coordinates":[100.0372929,13.8140293]}},{"type":"Feature","properties":{"Place":"Phong Tuk","Polity":"Dvaravati","People":"Mon","Country":"Thailand","Faith":""},"geometry":{"type":"Point","coordinates":[99.785095,13.8940824]}},{"type":"Feature","properties":{"Place":"Si Thep","Polity":"Dvaravati","People":"Mon","Country":"Thailand","Faith":""},"geometry":{"type":"Point","coordinates":[101.1463179,15.4700994]}},{"type":"Feature","properties":{"Place":"Khu Bua","Polity":"Dvaravati","People":"Mon","Country":"Thailand","Faith":""},"geometry":{"type":"Point","coordinates":[99.8236533,13.4779198]}},{"type":"Feature","properties":{"Place":"Si Mahosot","Polity":"Dvaravati","People":"Mon","Country":"Thailand","Faith":""},"geometry":{"type":"Point","coordinates":[101.4225592,13.8887566]}},{"type":"Feature","properties":{"Place":"Tongking","Polity":"Tang China","People":"Vietnamese","Country":"Vietnam","Faith":""},"geometry":{"type":"Point","coordinates":[105.8510132,21.027964]}},{"type":"Feature","properties":{"Place":"Thánh Địa Cát Tiên","Polity":"","People":"","Country":"Vietnam","Faith":""},"geometry":{"type":"Point","coordinates":[107.397902,11.529257]}},{"type":"Feature","properties":{"Place":"Kalingga","Polity":"Kalingga","People":"Javanese","Country":"Indonesia","Faith":""},"geometry":{"type":"Point","coordinates":[109.9069386,-7.2050346]}},{"type":"Feature","properties":{"Place":"Kanchipuram","Polity":"Pallava","People":"Tamil","Country":"India","Faith":""},"geometry":{"type":"Point","coordinates":[79.6946586,12.818456]}},{"type":"Feature","properties":{"Place":"Mahabalipuram","Polity":"Pallava","People":"Tamil","Country":"India","Faith":""},"geometry":{"type":"Point","coordinates":[80.1944915,12.6207821]}},{"type":"Feature","properties":{"Place":"Hangzhou","Polity":"Tang China","People":"Chinese","Country":"China","Faith":""},"geometry":{"type":"Point","coordinates":[120.15507,30.274084]}},{"type":"Feature","properties":{"Place":"Langkasuka","Polity":"","People":"Malay","Country":"Thailand","Faith":""},"geometry":{"type":"Point","coordinates":[101.2951403,6.7699758]}},{"type":"Feature","properties":{"Place":"Nalanda","Polity":"","People":"","Country":"India","Faith":""},"geometry":{"type":"Point","coordinates":[85.4485495,25.1353827]}},{"type":"Feature","properties":{"Place":"Simhapura","Polity":"Cham","People":"Malay","Country":"Vietnam","Faith":""},"geometry":{"type":"Point","coordinates":[108.2319444,15.8216667]}},{"type":"Feature","properties":{"Place":"Hoi An","Polity":"Cham","People":"Malay","Country":"Vietnam","Faith":""},"geometry":{"type":"Point","coordinates":[108.3282151,15.878223]}},{"type":"Feature","properties":{"Place":"Muaro Jambi","Polity":"Srivijaya","People":"Malay","Country":"Indonesia"},"geometry":{"type":"Point","coordinates":[103.8216261,-1.552136]}}]}